{
  "AH": {
    "name": "Agana Heights",
    "code": null,
    "unofficial_names": "Agana Heights",
    "geo": {
      "latitude": 13.46559,
      "longitude": 144.74773,
      "min_latitude": null,
      "min_longitude": null,
      "max_latitude": null,
      "max_longitude": null
    },
    "translations": {
      "en": "Agana Heights"
    },
    "comments": null
  },
  "AN": {
    "name": "Hagatna",
    "code": null,
    "unofficial_names": "Hagatna",
    "geo": {
      "latitude": 13.47279,
      "longitude": 144.75788,
      "min_latitude": null,
      "min_longitude": null,
      "max_latitude": null,
      "max_longitude": null
    },
    "translations": {
      "en": "Hagatna"
    },
    "comments": null
  },
  "AS": {
    "name": "Asan-Maina",
    "code": null,
    "unofficial_names": "Asan-Maina",
    "geo": {
      "latitude": 13.47214,
      "longitude": 144.7164,
      "min_latitude": null,
      "min_longitude": null,
      "max_latitude": null,
      "max_longitude": null
    },
    "translations": {
      "en": "Asan-Maina"
    },
    "comments": null
  },
  "AT": {
    "name": "Agat",
    "code": null,
    "unofficial_names": "Agat",
    "geo": {
      "latitude": 13.35619,
      "longitude": 144.66938,
      "min_latitude": null,
      "min_longitude": null,
      "max_latitude": null,
      "max_longitude": null
    },
    "translations": {
      "en": "Agat"
    },
    "comments": null
  },
  "BA": {
    "name": "Barrigada",
    "code": null,
    "unofficial_names": "Barrigada",
    "geo": {
      "latitude": 13.46906,
      "longitude": 144.7988,
      "min_latitude": null,
      "min_longitude": null,
      "max_latitude": null,
      "max_longitude": null
    },
    "translations": {
      "en": "Barrigada"
    },
    "comments": null
  },
  "CP": {
    "name": "Chalan Pago-Ordot",
    "code": null,
    "unofficial_names": "Chalan Pago-Ordot",
    "geo": {
      "latitude": 13.4474,
      "longitude": 144.75888,
      "min_latitude": null,
      "min_longitude": null,
      "max_latitude": null,
      "max_longitude": null
    },
    "translations": {
      "en": "Chalan Pago-Ordot"
    },
    "comments": null
  },
  "DD": {
    "name": "Dededo",
    "code": null,
    "unofficial_names": "Dededo",
    "geo": {
      "latitude": 13.51776,
      "longitude": 144.83898,
      "min_latitude": null,
      "min_longitude": null,
      "max_latitude": null,
      "max_longitude": null
    },
    "translations": {
      "en": "Dededo"
    },
    "comments": null
  },
  "IN": {
    "name": "Inarajan",
    "code": null,
    "unofficial_names": "Inarajan",
    "geo": {
      "latitude": 13.29414,
      "longitude": 144.73479,
      "min_latitude": null,
      "min_longitude": null,
      "max_latitude": null,
      "max_longitude": null
    },
    "translations": {
      "en": "Inarajan"
    },
    "comments": null
  },
  "MA": {
    "name": "Mangilao",
    "code": null,
    "unofficial_names": "Mangilao",
    "geo": {
      "latitude": 13.44766,
      "longitude": 144.80071,
      "min_latitude": null,
      "min_longitude": null,
      "max_latitude": null,
      "max_longitude": null
    },
    "translations": {
      "en": "Mangilao"
    },
    "comments": null
  },
  "ME": {
    "name": "Merizo",
    "code": null,
    "unofficial_names": "Merizo",
    "geo": {
      "latitude": 13.27125,
      "longitude": 144.67464,
      "min_latitude": null,
      "min_longitude": null,
      "max_latitude": null,
      "max_longitude": null
    },
    "translations": {
      "en": "Merizo"
    },
    "comments": null
  },
  "MT": {
    "name": "Mongmong-Toto-Maite",
    "code": null,
    "unofficial_names": "Mongmong-Toto-Maite",
    "geo": {
      "latitude": 13.46857,
      "longitude": 144.78191,
      "min_latitude": null,
      "min_longitude": null,
      "max_latitude": null,
      "max_longitude": null
    },
    "translations": {
      "en": "Mongmong-Toto-Maite"
    },
    "comments": null
  },
  "PI": {
    "name": "Piti",
    "code": null,
    "unofficial_names": "Piti",
    "geo": {
      "latitude": 13.46256,
      "longitude": 144.69282,
      "min_latitude": null,
      "min_longitude": null,
      "max_latitude": null,
      "max_longitude": null
    },
    "translations": {
      "en": "Piti"
    },
    "comments": null
  },
  "SJ": {
    "name": "Sinajana",
    "code": null,
    "unofficial_names": "Sinajana",
    "geo": {
      "latitude": 13.46334,
      "longitude": 144.75381,
      "min_latitude": null,
      "min_longitude": null,
      "max_latitude": null,
      "max_longitude": null
    },
    "translations": {
      "en": "Sinajana"
    },
    "comments": null
  },
  "SR": {
    "name": "Santa Rita",
    "code": null,
    "unofficial_names": "Santa Rita",
    "geo": {
      "latitude": 13.38609,
      "longitude": 144.67208,
      "min_latitude": null,
      "min_longitude": null,
      "max_latitude": null,
      "max_longitude": null
    },
    "translations": {
      "en": "Santa Rita"
    },
    "comments": null
  },
  "TF": {
    "name": "Talofofo",
    "code": null,
    "unofficial_names": "Talofofo",
    "geo": {
      "latitude": 13.35522,
      "longitude": 144.7588,
      "min_latitude": null,
      "min_longitude": null,
      "max_latitude": null,
      "max_longitude": null
    },
    "translations": {
      "en": "Talofofo"
    },
    "comments": null
  },
  "TM": {
    "name": "Tamuning",
    "code": null,
    "unofficial_names": "Tamuning",
    "geo": {
      "latitude": 13.48759,
      "longitude": 144.78094,
      "min_latitude": null,
      "min_longitude": null,
      "max_latitude": null,
      "max_longitude": null
    },
    "translations": {
      "en": "Tamuning"
    },
    "comments": null
  },
  "UM": {
    "name": "Umatac",
    "code": null,
    "unofficial_names": "Umatac",
    "geo": {
      "latitude": 13.30739,
      "longitude": 144.66909,
      "min_latitude": null,
      "min_longitude": null,
      "max_latitude": null,
      "max_longitude": null
    },
    "translations": {
      "en": "Umatac"
    },
    "comments": null
  },
  "YG": {
    "name": "Yigo",
    "code": null,
    "unofficial_names": "Yigo",
    "geo": {
      "latitude": 13.53603,
      "longitude": 144.88913,
      "min_latitude": null,
      "min_longitude": null,
      "max_latitude": null,
      "max_longitude": null
    },
    "translations": {
      "en": "Yigo"
    },
    "comments": null
  },
  "YN": {
    "name": "Yona",
    "code": null,
    "unofficial_names": "Yona",
    "geo": {
      "latitude": 13.40972,
      "longitude": 144.77714,
      "min_latitude": null,
      "min_longitude": null,
      "max_latitude": null,
      "max_longitude": null
    },
    "translations": {
      "en": "Yona"
    },
    "comments": null
  },
  "": {
    "name": null,
    "code": null,
    "unofficial_names": null,
    "geo": null,
    "translations": {
      "en": "Guam"
    },
    "comments": null
  }
}

