{
  "1": {
    "name": "Saint Clement",
    "code": null,
    "unofficial_names": "Saint Clement",
    "geo": {
      "latitude": 49.16565,
      "longitude": -2.07659,
      "min_latitude": null,
      "min_longitude": null,
      "max_latitude": null,
      "max_longitude": null
    },
    "translations": {
      "en": "Saint Clement"
    },
    "comments": null
  },
  "2": {
    "name": "Saint Saviour",
    "code": null,
    "unofficial_names": "Saint Saviour",
    "geo": {
      "latitude": 49.19517,
      "longitude": -2.09238,
      "min_latitude": null,
      "min_longitude": null,
      "max_latitude": null,
      "max_longitude": null
    },
    "translations": {
      "en": "Saint Saviour"
    },
    "comments": null
  },
  "3": {
    "name": "Saint Brelade",
    "code": null,
    "unofficial_names": "Saint Brelade",
    "geo": {
      "latitude": 49.19056,
      "longitude": -2.20056,
      "min_latitude": null,
      "min_longitude": null,
      "max_latitude": null,
      "max_longitude": null
    },
    "translations": {
      "en": "Saint Brelade"
    },
    "comments": null
  },
  "4": {
    "name": "Grouville",
    "code": null,
    "unofficial_names": "Grouville",
    "geo": {
      "latitude": 49.18472,
      "longitude": -2.04917,
      "min_latitude": null,
      "min_longitude": null,
      "max_latitude": null,
      "max_longitude": null
    },
    "translations": {
      "en": "Grouville"
    },
    "comments": null
  },
  "5": {
    "name": "Saint Mary",
    "code": null,
    "unofficial_names": "Saint Mary",
    "geo": {
      "latitude": 49.23583,
      "longitude": -2.17222,
      "min_latitude": null,
      "min_longitude": null,
      "max_latitude": null,
      "max_longitude": null
    },
    "translations": {
      "en": "Saint Mary"
    },
    "comments": null
  },
  "6": {
    "name": "Saint Lawrence",
    "code": null,
    "unofficial_names": "Saint Lawrence",
    "geo": {
      "latitude": 49.21528,
      "longitude": -2.14,
      "min_latitude": null,
      "min_longitude": null,
      "max_latitude": null,
      "max_longitude": null
    },
    "translations": {
      "en": "Saint Lawrence"
    },
    "comments": null
  },
  "7": {
    "name": "Saint Peter",
    "code": null,
    "unofficial_names": "Saint Peter",
    "geo": {
      "latitude": 49.21333,
      "longitude": -2.18194,
      "min_latitude": null,
      "min_longitude": null,
      "max_latitude": null,
      "max_longitude": null
    },
    "translations": {
      "en": "Saint Peter"
    },
    "comments": null
  },
  "8": {
    "name": "Saint Ouen",
    "code": null,
    "unofficial_names": "Saint Ouen",
    "geo": {
      "latitude": 49.22667,
      "longitude": -2.20556,
      "min_latitude": null,
      "min_longitude": null,
      "max_latitude": null,
      "max_longitude": null
    },
    "translations": {
      "en": "Saint Ouen"
    },
    "comments": null
  },
  "9": {
    "name": "Saint John",
    "code": null,
    "unofficial_names": "Saint John",
    "geo": {
      "latitude": 49.24694,
      "longitude": -2.1375,
      "min_latitude": null,
      "min_longitude": null,
      "max_latitude": null,
      "max_longitude": null
    },
    "translations": {
      "en": "Saint John"
    },
    "comments": null
  },
  "10": {
    "name": "Trinity",
    "code": null,
    "unofficial_names": "Trinity",
    "geo": {
      "latitude": 49.23472,
      "longitude": -2.09,
      "min_latitude": null,
      "min_longitude": null,
      "max_latitude": null,
      "max_longitude": null
    },
    "translations": {
      "en": "Trinity"
    },
    "comments": null
  },
  "11": {
    "name": "Saint Martin",
    "code": null,
    "unofficial_names": "Saint Martin",
    "geo": {
      "latitude": 49.21944,
      "longitude": -2.04972,
      "min_latitude": null,
      "min_longitude": null,
      "max_latitude": null,
      "max_longitude": null
    },
    "translations": {
      "en": "Saint Martin"
    },
    "comments": null
  },
  "12": {
    "name": "Saint Helier",
    "code": null,
    "unofficial_names": "Saint Helier",
    "geo": {
      "latitude": 49.18333,
      "longitude": -2.1,
      "min_latitude": null,
      "min_longitude": null,
      "max_latitude": null,
      "max_longitude": null
    },
    "translations": {
      "en": "Saint Helier"
    },
    "comments": null
  }
}

