{
  "N": {
    "name": "Northern Islands",
    "code": null,
    "unofficial_names": "Northern Islands",
    "geo": {
      "latitude": 18.11,
      "longitude": 145.771,
      "min_latitude": null,
      "min_longitude": null,
      "max_latitude": null,
      "max_longitude": null
    },
    "translations": {
      "en": "Northern Islands"
    },
    "comments": null
  },
  "R": {
    "name": "Rota",
    "code": null,
    "unofficial_names": "Rota",
    "geo": {
      "latitude": 14.154,
      "longitude": 145.201,
      "min_latitude": null,
      "min_longitude": null,
      "max_latitude": null,
      "max_longitude": null
    },
    "translations": {
      "en": "Rota"
    },
    "comments": null
  },
  "S": {
    "name": "Saipan",
    "code": null,
    "unofficial_names": "Saipan",
    "geo": {
      "latitude": 15.16847,
      "longitude": 145.74081,
      "min_latitude": null,
      "min_longitude": null,
      "max_latitude": null,
      "max_longitude": null
    },
    "translations": {
      "en": "Saipan"
    },
    "comments": null
  },
  "T": {
    "name": "Tinian",
    "code": null,
    "unofficial_names": "Tinian",
    "geo": {
      "latitude": 15.029,
      "longitude": 145.616,
      "min_latitude": null,
      "min_longitude": null,
      "max_latitude": null,
      "max_longitude": null
    },
    "translations": {
      "en": "Tinian"
    },
    "comments": null
  },
  "": {
    "name": null,
    "code": null,
    "unofficial_names": null,
    "geo": {
      "latitude": 22.9734229,
      "longitude": 78.6568942,
      "min_latitude": 21.0799139,
      "min_longitude": 74.0362481,
      "max_latitude": 26.8681089,
      "max_longitude": 82.809674
    },
    "translations": {
      "en": "Northern Mariana Islands"
    },
    "comments": null
  }
}

