{
  "1": {
    "name": "Adjuntas",
    "code": null,
    "unofficial_names": "Adjuntas",
    "geo": {
      "latitude": 18.16274,
      "longitude": -66.72212,
      "min_latitude": null,
      "min_longitude": null,
      "max_latitude": null,
      "max_longitude": null
    },
    "translations": {
      "en": "Adjuntas"
    },
    "comments": null
  },
  "2": {
    "name": "Aguada",
    "code": null,
    "unofficial_names": "Aguada",
    "geo": {
      "latitude": 18.3605,
      "longitude": -67.17463,
      "min_latitude": null,
      "min_longitude": null,
      "max_latitude": null,
      "max_longitude": null
    },
    "translations": {
      "en": "Aguada"
    },
    "comments": null
  },
  "3": {
    "name": "Aguadilla",
    "code": null,
    "unofficial_names": "Aguadilla",
    "geo": {
      "latitude": 18.42745,
      "longitude": -67.15407,
      "min_latitude": null,
      "min_longitude": null,
      "max_latitude": null,
      "max_longitude": null
    },
    "translations": {
      "en": "Aguadilla"
    },
    "comments": null
  },
  "4": {
    "name": "Aguas Buenas",
    "code": null,
    "unofficial_names": "Aguas Buenas",
    "geo": {
      "latitude": 18.2569,
      "longitude": -66.10294,
      "min_latitude": null,
      "min_longitude": null,
      "max_latitude": null,
      "max_longitude": null
    },
    "translations": {
      "en": "Aguas Buenas"
    },
    "comments": null
  },
  "5": {
    "name": "Aibonito",
    "code": null,
    "unofficial_names": "Aibonito",
    "geo": {
      "latitude": 18.13996,
      "longitude": -66.266,
      "min_latitude": null,
      "min_longitude": null,
      "max_latitude": null,
      "max_longitude": null
    },
    "translations": {
      "en": "Aibonito"
    },
    "comments": null
  },
  "6": {
    "name": "Anasco",
    "code": null,
    "unofficial_names": "Anasco",
    "geo": {
      "latitude": 18.28134,
      "longitude": -67.1274,
      "min_latitude": null,
      "min_longitude": null,
      "max_latitude": null,
      "max_longitude": null
    },
    "translations": {
      "en": "Anasco"
    },
    "comments": null
  },
  "7": {
    "name": "Arecibo",
    "code": null,
    "unofficial_names": "Arecibo",
    "geo": {
      "latitude": 18.40411,
      "longitude": -66.67462,
      "min_latitude": null,
      "min_longitude": null,
      "max_latitude": null,
      "max_longitude": null
    },
    "translations": {
      "en": "Arecibo"
    },
    "comments": null
  },
  "8": {
    "name": "Arroyo",
    "code": null,
    "unofficial_names": "Arroyo",
    "geo": {
      "latitude": 18.0008,
      "longitude": -66.05794,
      "min_latitude": null,
      "min_longitude": null,
      "max_latitude": null,
      "max_longitude": null
    },
    "translations": {
      "en": "Arroyo"
    },
    "comments": null
  },
  "9": {
    "name": "Barceloneta",
    "code": null,
    "unofficial_names": "Barceloneta",
    "geo": {
      "latitude": 18.45633,
      "longitude": -66.54128,
      "min_latitude": null,
      "min_longitude": null,
      "max_latitude": null,
      "max_longitude": null
    },
    "translations": {
      "en": "Barceloneta"
    },
    "comments": null
  },
  "10": {
    "name": "Barranquitas",
    "code": null,
    "unofficial_names": "Barranquitas",
    "geo": {
      "latitude": 18.20357,
      "longitude": -66.31211,
      "min_latitude": null,
      "min_longitude": null,
      "max_latitude": null,
      "max_longitude": null
    },
    "translations": {
      "en": "Barranquitas"
    },
    "comments": null
  },
  "11": {
    "name": "Bayamon",
    "code": null,
    "unofficial_names": "Bayamon",
    "geo": {
      "latitude": 18.35217,
      "longitude": -66.17044,
      "min_latitude": null,
      "min_longitude": null,
      "max_latitude": null,
      "max_longitude": null
    },
    "translations": {
      "en": "Bayamon"
    },
    "comments": null
  },
  "12": {
    "name": "Cabo Rojo",
    "code": null,
    "unofficial_names": "Cabo Rojo",
    "geo": {
      "latitude": 18.05635,
      "longitude": -67.14685,
      "min_latitude": null,
      "min_longitude": null,
      "max_latitude": null,
      "max_longitude": null
    },
    "translations": {
      "en": "Cabo Rojo"
    },
    "comments": null
  },
  "13": {
    "name": "Caguas",
    "code": null,
    "unofficial_names": "Caguas",
    "geo": {
      "latitude": 18.21329,
      "longitude": -66.04961,
      "min_latitude": null,
      "min_longitude": null,
      "max_latitude": null,
      "max_longitude": null
    },
    "translations": {
      "en": "Caguas"
    },
    "comments": null
  },
  "14": {
    "name": "Camuy",
    "code": null,
    "unofficial_names": "Camuy",
    "geo": {
      "latitude": 18.42578,
      "longitude": -66.85934,
      "min_latitude": null,
      "min_longitude": null,
      "max_latitude": null,
      "max_longitude": null
    },
    "translations": {
      "en": "Camuy"
    },
    "comments": null
  },
  "15": {
    "name": "Canovanas",
    "code": null,
    "unofficial_names": "Canovanas",
    "geo": {
      "latitude": 18.33828,
      "longitude": -65.88711,
      "min_latitude": null,
      "min_longitude": null,
      "max_latitude": null,
      "max_longitude": null
    },
    "translations": {
      "en": "Canovanas"
    },
    "comments": null
  },
  "16": {
    "name": "Carolina",
    "code": null,
    "unofficial_names": "Carolina",
    "geo": {
      "latitude": 18.37578,
      "longitude": -65.95794,
      "min_latitude": null,
      "min_longitude": null,
      "max_latitude": null,
      "max_longitude": null
    },
    "translations": {
      "en": "Carolina"
    },
    "comments": null
  },
  "17": {
    "name": "Catano",
    "code": null,
    "unofficial_names": "Catano",
    "geo": {
      "latitude": 18.4355,
      "longitude": -66.13711,
      "min_latitude": null,
      "min_longitude": null,
      "max_latitude": null,
      "max_longitude": null
    },
    "translations": {
      "en": "Catano"
    },
    "comments": null
  },
  "18": {
    "name": "Cayey",
    "code": null,
    "unofficial_names": "Cayey",
    "geo": {
      "latitude": 18.10357,
      "longitude": -66.15378,
      "min_latitude": null,
      "min_longitude": null,
      "max_latitude": null,
      "max_longitude": null
    },
    "translations": {
      "en": "Cayey"
    },
    "comments": null
  },
  "19": {
    "name": "Ceiba",
    "code": null,
    "unofficial_names": "Ceiba",
    "geo": {
      "latitude": 18.26051,
      "longitude": -65.67183,
      "min_latitude": null,
      "min_longitude": null,
      "max_latitude": null,
      "max_longitude": null
    },
    "translations": {
      "en": "Ceiba"
    },
    "comments": null
  },
  "20": {
    "name": "Ciales",
    "code": null,
    "unofficial_names": "Ciales",
    "geo": {
      "latitude": 18.29162,
      "longitude": -66.51628,
      "min_latitude": null,
      "min_longitude": null,
      "max_latitude": null,
      "max_longitude": null
    },
    "translations": {
      "en": "Ciales"
    },
    "comments": null
  },
  "21": {
    "name": "Cidra",
    "code": null,
    "unofficial_names": "Cidra",
    "geo": {
      "latitude": 18.17579,
      "longitude": -66.16211,
      "min_latitude": null,
      "min_longitude": null,
      "max_latitude": null,
      "max_longitude": null
    },
    "translations": {
      "en": "Cidra"
    },
    "comments": null
  },
  "22": {
    "name": "Coamo",
    "code": null,
    "unofficial_names": "Coamo",
    "geo": {
      "latitude": 18.09802,
      "longitude": -66.36211,
      "min_latitude": null,
      "min_longitude": null,
      "max_latitude": null,
      "max_longitude": null
    },
    "translations": {
      "en": "Coamo"
    },
    "comments": null
  },
  "23": {
    "name": "Comerio",
    "code": null,
    "unofficial_names": "Comerio",
    "geo": {
      "latitude": 18.22718,
      "longitude": -66.22183,
      "min_latitude": null,
      "min_longitude": null,
      "max_latitude": null,
      "max_longitude": null
    },
    "translations": {
      "en": "Comerio"
    },
    "comments": null
  },
  "24": {
    "name": "Corozal",
    "code": null,
    "unofficial_names": "Corozal",
    "geo": {
      "latitude": 18.30912,
      "longitude": -66.326,
      "min_latitude": null,
      "min_longitude": null,
      "max_latitude": null,
      "max_longitude": null
    },
    "translations": {
      "en": "Corozal"
    },
    "comments": null
  },
  "25": {
    "name": "Culebra",
    "code": null,
    "unofficial_names": "Culebra",
    "geo": {
      "latitude": 18.31884,
      "longitude": -65.2871,
      "min_latitude": null,
      "min_longitude": null,
      "max_latitude": null,
      "max_longitude": null
    },
    "translations": {
      "en": "Culebra"
    },
    "comments": null
  },
  "26": {
    "name": "Dorado",
    "code": null,
    "unofficial_names": "Dorado",
    "geo": {
      "latitude": 18.43967,
      "longitude": -66.28295,
      "min_latitude": null,
      "min_longitude": null,
      "max_latitude": null,
      "max_longitude": null
    },
    "translations": {
      "en": "Dorado"
    },
    "comments": null
  },
  "27": {
    "name": "Fajardo",
    "code": null,
    "unofficial_names": "Fajardo",
    "geo": {
      "latitude": 18.31051,
      "longitude": -65.676,
      "min_latitude": null,
      "min_longitude": null,
      "max_latitude": null,
      "max_longitude": null
    },
    "translations": {
      "en": "Fajardo"
    },
    "comments": null
  },
  "28": {
    "name": "Florida",
    "code": null,
    "unofficial_names": "Florida",
    "geo": {
      "latitude": 18.36051,
      "longitude": -66.56212,
      "min_latitude": null,
      "min_longitude": null,
      "max_latitude": null,
      "max_longitude": null
    },
    "translations": {
      "en": "Florida"
    },
    "comments": null
  },
  "29": {
    "name": "Guanica",
    "code": null,
    "unofficial_names": "Guanica",
    "geo": {
      "latitude": 17.9883,
      "longitude": -66.91212,
      "min_latitude": null,
      "min_longitude": null,
      "max_latitude": null,
      "max_longitude": null
    },
    "translations": {
      "en": "Guanica"
    },
    "comments": null
  },
  "30": {
    "name": "Guayama",
    "code": null,
    "unofficial_names": "Guayama",
    "geo": {
      "latitude": 18.01663,
      "longitude": -66.13072,
      "min_latitude": null,
      "min_longitude": null,
      "max_latitude": null,
      "max_longitude": null
    },
    "translations": {
      "en": "Guayama"
    },
    "comments": null
  },
  "31": {
    "name": "Guayanilla",
    "code": null,
    "unofficial_names": "Guayanilla",
    "geo": {
      "latitude": 18.05413,
      "longitude": -66.7899,
      "min_latitude": null,
      "min_longitude": null,
      "max_latitude": null,
      "max_longitude": null
    },
    "translations": {
      "en": "Guayanilla"
    },
    "comments": null
  },
  "32": {
    "name": "Guaynabo",
    "code": null,
    "unofficial_names": "Guaynabo",
    "geo": {
      "latitude": 18.34106,
      "longitude": -66.11628,
      "min_latitude": null,
      "min_longitude": null,
      "max_latitude": null,
      "max_longitude": null
    },
    "translations": {
      "en": "Guaynabo"
    },
    "comments": null
  },
  "33": {
    "name": "Gurabo",
    "code": null,
    "unofficial_names": "Gurabo",
    "geo": {
      "latitude": 18.27162,
      "longitude": -65.97183,
      "min_latitude": null,
      "min_longitude": null,
      "max_latitude": null,
      "max_longitude": null
    },
    "translations": {
      "en": "Gurabo"
    },
    "comments": null
  },
  "34": {
    "name": "Hatillo",
    "code": null,
    "unofficial_names": "Hatillo",
    "geo": {
      "latitude": 18.40773,
      "longitude": -66.79323,
      "min_latitude": null,
      "min_longitude": null,
      "max_latitude": null,
      "max_longitude": null
    },
    "translations": {
      "en": "Hatillo"
    },
    "comments": null
  },
  "35": {
    "name": "Hormigueros",
    "code": null,
    "unofficial_names": "Hormigueros",
    "geo": {
      "latitude": 18.14162,
      "longitude": -67.11629,
      "min_latitude": null,
      "min_longitude": null,
      "max_latitude": null,
      "max_longitude": null
    },
    "translations": {
      "en": "Hormigueros"
    },
    "comments": null
  },
  "36": {
    "name": "Humacao",
    "code": null,
    "unofficial_names": "Humacao",
    "geo": {
      "latitude": 18.14802,
      "longitude": -65.81211,
      "min_latitude": null,
      "min_longitude": null,
      "max_latitude": null,
      "max_longitude": null
    },
    "translations": {
      "en": "Humacao"
    },
    "comments": null
  },
  "37": {
    "name": "Isabela",
    "code": null,
    "unofficial_names": "Isabela",
    "geo": {
      "latitude": 18.50078,
      "longitude": -67.02435,
      "min_latitude": null,
      "min_longitude": null,
      "max_latitude": null,
      "max_longitude": null
    },
    "translations": {
      "en": "Isabela"
    },
    "comments": null
  },
  "38": {
    "name": "Jayuya",
    "code": null,
    "unofficial_names": "Jayuya",
    "geo": {
      "latitude": 18.21857,
      "longitude": -66.59156,
      "min_latitude": null,
      "min_longitude": null,
      "max_latitude": null,
      "max_longitude": null
    },
    "translations": {
      "en": "Jayuya"
    },
    "comments": null
  },
  "39": {
    "name": "Juana Diaz",
    "code": null,
    "unofficial_names": "Juana Diaz",
    "geo": {
      "latitude": 18.04802,
      "longitude": -66.49267,
      "min_latitude": null,
      "min_longitude": null,
      "max_latitude": null,
      "max_longitude": null
    },
    "translations": {
      "en": "Juana Diaz"
    },
    "comments": null
  },
  "40": {
    "name": "Juncos",
    "code": null,
    "unofficial_names": "Juncos",
    "geo": {
      "latitude": 18.22746,
      "longitude": -65.921,
      "min_latitude": null,
      "min_longitude": null,
      "max_latitude": null,
      "max_longitude": null
    },
    "translations": {
      "en": "Juncos"
    },
    "comments": null
  },
  "41": {
    "name": "Lajas",
    "code": null,
    "unofficial_names": "Lajas",
    "geo": {
      "latitude": 18.0133,
      "longitude": -67.0399,
      "min_latitude": null,
      "min_longitude": null,
      "max_latitude": null,
      "max_longitude": null
    },
    "translations": {
      "en": "Lajas"
    },
    "comments": null
  },
  "42": {
    "name": "Lares",
    "code": null,
    "unofficial_names": "Lares",
    "geo": {
      "latitude": 18.27023,
      "longitude": -66.86907,
      "min_latitude": null,
      "min_longitude": null,
      "max_latitude": null,
      "max_longitude": null
    },
    "translations": {
      "en": "Lares"
    },
    "comments": null
  },
  "43": {
    "name": "Las Marias",
    "code": null,
    "unofficial_names": "Las Marias",
    "geo": {
      "latitude": 18.25087,
      "longitude": -66.9924,
      "min_latitude": null,
      "min_longitude": null,
      "max_latitude": null,
      "max_longitude": null
    },
    "translations": {
      "en": "Las Marias"
    },
    "comments": null
  },
  "44": {
    "name": "Las Piedras",
    "code": null,
    "unofficial_names": "Las Piedras",
    "geo": {
      "latitude": 18.18829,
      "longitude": -65.87044,
      "min_latitude": null,
      "min_longitude": null,
      "max_latitude": null,
      "max_longitude": null
    },
    "translations": {
      "en": "Las Piedras"
    },
    "comments": null
  },
  "45": {
    "name": "Loiza",
    "code": null,
    "unofficial_names": "Loiza",
    "geo": {
      "latitude": 18.43411,
      "longitude": -65.89266,
      "min_latitude": null,
      "min_longitude": null,
      "max_latitude": null,
      "max_longitude": null
    },
    "translations": {
      "en": "Loiza"
    },
    "comments": null
  },
  "46": {
    "name": "Luquillo",
    "code": null,
    "unofficial_names": "Luquillo",
    "geo": {
      "latitude": 18.33967,
      "longitude": -65.72461,
      "min_latitude": null,
      "min_longitude": null,
      "max_latitude": null,
      "max_longitude": null
    },
    "translations": {
      "en": "Luquillo"
    },
    "comments": null
  },
  "47": {
    "name": "Manati",
    "code": null,
    "unofficial_names": "Manati",
    "geo": {
      "latitude": 18.41884,
      "longitude": -66.49267,
      "min_latitude": null,
      "min_longitude": null,
      "max_latitude": null,
      "max_longitude": null
    },
    "translations": {
      "en": "Manati"
    },
    "comments": null
  },
  "48": {
    "name": "Maricao",
    "code": null,
    "unofficial_names": "Maricao",
    "geo": {
      "latitude": 18.17301,
      "longitude": -66.94546,
      "min_latitude": null,
      "min_longitude": null,
      "max_latitude": null,
      "max_longitude": null
    },
    "translations": {
      "en": "Maricao"
    },
    "comments": null
  },
  "49": {
    "name": "Maunabo",
    "code": null,
    "unofficial_names": "Maunabo",
    "geo": {
      "latitude": 18.01691,
      "longitude": -65.92738,
      "min_latitude": null,
      "min_longitude": null,
      "max_latitude": null,
      "max_longitude": null
    },
    "translations": {
      "en": "Maunabo"
    },
    "comments": null
  },
  "50": {
    "name": "Mayaguez",
    "code": null,
    "unofficial_names": "Mayaguez",
    "geo": {
      "latitude": 18.20496,
      "longitude": -67.1024,
      "min_latitude": null,
      "min_longitude": null,
      "max_latitude": null,
      "max_longitude": null
    },
    "translations": {
      "en": "Mayaguez"
    },
    "comments": null
  },
  "51": {
    "name": "Moca",
    "code": null,
    "unofficial_names": "Moca",
    "geo": {
      "latitude": 18.3855,
      "longitude": -67.08435,
      "min_latitude": null,
      "min_longitude": null,
      "max_latitude": null,
      "max_longitude": null
    },
    "translations": {
      "en": "Moca"
    },
    "comments": null
  },
  "52": {
    "name": "Morovis",
    "code": null,
    "unofficial_names": "Morovis",
    "geo": {
      "latitude": 18.31884,
      "longitude": -66.41767,
      "min_latitude": null,
      "min_longitude": null,
      "max_latitude": null,
      "max_longitude": null
    },
    "translations": {
      "en": "Morovis"
    },
    "comments": null
  },
  "53": {
    "name": "Naguabo",
    "code": null,
    "unofficial_names": "Naguabo",
    "geo": {
      "latitude": 18.23135,
      "longitude": -65.75988,
      "min_latitude": null,
      "min_longitude": null,
      "max_latitude": null,
      "max_longitude": null
    },
    "translations": {
      "en": "Naguabo"
    },
    "comments": null
  },
  "54": {
    "name": "Naranjito",
    "code": null,
    "unofficial_names": "Naranjito",
    "geo": {
      "latitude": 18.28968,
      "longitude": -66.25517,
      "min_latitude": null,
      "min_longitude": null,
      "max_latitude": null,
      "max_longitude": null
    },
    "translations": {
      "en": "Naranjito"
    },
    "comments": null
  },
  "55": {
    "name": "Orocovis",
    "code": null,
    "unofficial_names": "Orocovis",
    "geo": {
      "latitude": 18.21885,
      "longitude": -66.43712,
      "min_latitude": null,
      "min_longitude": null,
      "max_latitude": null,
      "max_longitude": null
    },
    "translations": {
      "en": "Orocovis"
    },
    "comments": null
  },
  "56": {
    "name": "Patillas",
    "code": null,
    "unofficial_names": "Patillas",
    "geo": {
      "latitude": 18.04163,
      "longitude": -66.01766,
      "min_latitude": null,
      "min_longitude": null,
      "max_latitude": null,
      "max_longitude": null
    },
    "translations": {
      "en": "Patillas"
    },
    "comments": null
  },
  "57": {
    "name": "Penuelas",
    "code": null,
    "unofficial_names": "Penuelas",
    "geo": {
      "latitude": 18.07024,
      "longitude": -66.71767,
      "min_latitude": null,
      "min_longitude": null,
      "max_latitude": null,
      "max_longitude": null
    },
    "translations": {
      "en": "Penuelas"
    },
    "comments": null
  },
  "58": {
    "name": "Ponce",
    "code": null,
    "unofficial_names": "Ponce",
    "geo": {
      "latitude": 18.07302,
      "longitude": -66.61851,
      "min_latitude": null,
      "min_longitude": null,
      "max_latitude": null,
      "max_longitude": null
    },
    "translations": {
      "en": "Ponce"
    },
    "comments": null
  },
  "59": {
    "name": "Quebradillas",
    "code": null,
    "unofficial_names": "Quebradillas",
    "geo": {
      "latitude": 18.43967,
      "longitude": -66.92462,
      "min_latitude": null,
      "min_longitude": null,
      "max_latitude": null,
      "max_longitude": null
    },
    "translations": {
      "en": "Quebradillas"
    },
    "comments": null
  },
  "60": {
    "name": "Rincon",
    "code": null,
    "unofficial_names": "Rincon",
    "geo": {
      "latitude": 18.33967,
      "longitude": -67.23713,
      "min_latitude": null,
      "min_longitude": null,
      "max_latitude": null,
      "max_longitude": null
    },
    "translations": {
      "en": "Rincon"
    },
    "comments": null
  },
  "61": {
    "name": "Rio Grande",
    "code": null,
    "unofficial_names": "Rio Grande",
    "geo": {
      "latitude": 18.34162,
      "longitude": -65.81766,
      "min_latitude": null,
      "min_longitude": null,
      "max_latitude": null,
      "max_longitude": null
    },
    "translations": {
      "en": "Rio Grande"
    },
    "comments": null
  },
  "62": {
    "name": "Sabana Grande",
    "code": null,
    "unofficial_names": "Sabana Grande",
    "geo": {
      "latitude": 18.09385,
      "longitude": -66.94962,
      "min_latitude": null,
      "min_longitude": null,
      "max_latitude": null,
      "max_longitude": null
    },
    "translations": {
      "en": "Sabana Grande"
    },
    "comments": null
  },
  "63": {
    "name": "Salinas",
    "code": null,
    "unofficial_names": "Salinas",
    "geo": {
      "latitude": 18.01746,
      "longitude": -66.25378,
      "min_latitude": null,
      "min_longitude": null,
      "max_latitude": null,
      "max_longitude": null
    },
    "translations": {
      "en": "Salinas"
    },
    "comments": null
  },
  "64": {
    "name": "San German",
    "code": null,
    "unofficial_names": "San German",
    "geo": {
      "latitude": 18.11468,
      "longitude": -67.03573,
      "min_latitude": null,
      "min_longitude": null,
      "max_latitude": null,
      "max_longitude": null
    },
    "translations": {
      "en": "San German"
    },
    "comments": null
  },
  "65": {
    "name": "San Juan",
    "code": null,
    "unofficial_names": "San Juan",
    "geo": {
      "latitude": 18.45095,
      "longitude": -66.09169,
      "min_latitude": null,
      "min_longitude": null,
      "max_latitude": null,
      "max_longitude": null
    },
    "translations": {
      "en": "San Juan"
    },
    "comments": null
  },
  "66": {
    "name": "San Lorenzo",
    "code": null,
    "unofficial_names": "San Lorenzo",
    "geo": {
      "latitude": 18.15496,
      "longitude": -65.97461,
      "min_latitude": null,
      "min_longitude": null,
      "max_latitude": null,
      "max_longitude": null
    },
    "translations": {
      "en": "San Lorenzo"
    },
    "comments": null
  },
  "67": {
    "name": "San Sebastian",
    "code": null,
    "unofficial_names": "San Sebastian",
    "geo": {
      "latitude": 18.32912,
      "longitude": -66.97462,
      "min_latitude": null,
      "min_longitude": null,
      "max_latitude": null,
      "max_longitude": null
    },
    "translations": {
      "en": "San Sebastian"
    },
    "comments": null
  },
  "68": {
    "name": "Santa Isabel",
    "code": null,
    "unofficial_names": "Santa Isabel",
    "geo": {
      "latitude": 17.99663,
      "longitude": -66.38711,
      "min_latitude": null,
      "min_longitude": null,
      "max_latitude": null,
      "max_longitude": null
    },
    "translations": {
      "en": "Santa Isabel"
    },
    "comments": null
  },
  "69": {
    "name": "Toa Alta",
    "code": null,
    "unofficial_names": "Toa Alta",
    "geo": {
      "latitude": 18.36606,
      "longitude": -66.25378,
      "min_latitude": null,
      "min_longitude": null,
      "max_latitude": null,
      "max_longitude": null
    },
    "translations": {
      "en": "Toa Alta"
    },
    "comments": null
  },
  "70": {
    "name": "Toa Baja",
    "code": null,
    "unofficial_names": "Toa Baja",
    "geo": {
      "latitude": 18.43176,
      "longitude": -66.21291,
      "min_latitude": null,
      "min_longitude": null,
      "max_latitude": null,
      "max_longitude": null
    },
    "translations": {
      "en": "Toa Baja"
    },
    "comments": null
  },
  "71": {
    "name": "Trujillo Alto",
    "code": null,
    "unofficial_names": "Trujillo Alto",
    "geo": {
      "latitude": 18.34162,
      "longitude": -66.00517,
      "min_latitude": null,
      "min_longitude": null,
      "max_latitude": null,
      "max_longitude": null
    },
    "translations": {
      "en": "Trujillo Alto"
    },
    "comments": null
  },
  "72": {
    "name": "Utuado",
    "code": null,
    "unofficial_names": "Utuado",
    "geo": {
      "latitude": 18.27301,
      "longitude": -66.69962,
      "min_latitude": null,
      "min_longitude": null,
      "max_latitude": null,
      "max_longitude": null
    },
    "translations": {
      "en": "Utuado"
    },
    "comments": null
  },
  "73": {
    "name": "Vega Alta",
    "code": null,
    "unofficial_names": "Vega Alta",
    "geo": {
      "latitude": 18.4105,
      "longitude": -66.33295,
      "min_latitude": null,
      "min_longitude": null,
      "max_latitude": null,
      "max_longitude": null
    },
    "translations": {
      "en": "Vega Alta"
    },
    "comments": null
  },
  "74": {
    "name": "Vega Baja",
    "code": null,
    "unofficial_names": "Vega Baja",
    "geo": {
      "latitude": 18.42578,
      "longitude": -66.39961,
      "min_latitude": null,
      "min_longitude": null,
      "max_latitude": null,
      "max_longitude": null
    },
    "translations": {
      "en": "Vega Baja"
    },
    "comments": null
  },
  "75": {
    "name": "Vieques",
    "code": null,
    "unofficial_names": "Vieques",
    "geo": {
      "latitude": 18.12913,
      "longitude": -65.4371,
      "min_latitude": null,
      "min_longitude": null,
      "max_latitude": null,
      "max_longitude": null
    },
    "translations": {
      "en": "Vieques"
    },
    "comments": null
  },
  "76": {
    "name": "Villalba",
    "code": null,
    "unofficial_names": "Villalba",
    "geo": {
      "latitude": 18.12913,
      "longitude": -66.47739,
      "min_latitude": null,
      "min_longitude": null,
      "max_latitude": null,
      "max_longitude": null
    },
    "translations": {
      "en": "Villalba"
    },
    "comments": null
  },
  "77": {
    "name": "Yabucoa",
    "code": null,
    "unofficial_names": "Yabucoa",
    "geo": {
      "latitude": 18.07302,
      "longitude": -65.88711,
      "min_latitude": null,
      "min_longitude": null,
      "max_latitude": null,
      "max_longitude": null
    },
    "translations": {
      "en": "Yabucoa"
    },
    "comments": null
  },
  "78": {
    "name": "Yauco",
    "code": null,
    "unofficial_names": "Yauco",
    "geo": {
      "latitude": 18.07857,
      "longitude": -66.85518,
      "min_latitude": null,
      "min_longitude": null,
      "max_latitude": null,
      "max_longitude": null
    },
    "translations": {
      "en": "Yauco"
    },
    "comments": null
  },
  "": {
    "name": null,
    "code": null,
    "unofficial_names": null,
    "geo": {
      "latitude": 18.220833,
      "longitude": -66.590149,
      "min_latitude": 17.8449191,
      "min_longitude": -67.9611844,
      "max_latitude": 18.5720479,
      "max_longitude": -65.2105715
    },
    "translations": {
      "en": "Puerto Rico"
    },
    "comments": null
  }
}

